{"results":{"opensearch:Query":{"#text":"","role":"request","searchTerms":"arena","startPage":"1"},"opensearch:totalResults":"2386","opensearch:startIndex":"0","opensearch:itemsPerPage":"50","venuematches":{"venue":[{"id":"9138914","name":"Arena Moscow","location":{"geo:point":{"geo:lat":"55.784765","geo:long":"37.560043"},"city":"","country":"Russian Federation","street":"\u041b\u0435\u043d\u0438\u043d\u0433\u0440\u0430\u0434\u0441\u043a\u0438\u0439 \u043f\u0440\u043e\u0441\u043f\u0435\u043a\u0442 31, \u0441\u0442\u0440. 4 (\u043c. \u0414\u0438\u043d\u0430\u043c\u043e)","postalcode":"125284"},"url":"http:\/\/www.last.fm\/venue\/9138914+Arena+Moscow","website":"http:\/\/www.arenagroup.ru","phonenumber":"+7 (495) 9406755","image":[{"#text":"http:\/\/userserve-ak.last.fm\/serve\/34\/49843813.jpg","size":"small"},{"#text":"http:\/\/userserve-ak.last.fm\/serve\/64\/49843813.jpg","size":"medium"},{"#text":"http:\/\/userserve-ak.last.fm\/serve\/126\/49843813.jpg","size":"large"},{"#text":"http:\/\/userserve-ak.last.fm\/serve\/252\/49843813.jpg","size":"extralarge"},{"#text":"http:\/\/userserve-ak.last.fm\/serve\/_\/49843813\/Arena+Moscow+ArenaMoscowUntitled1.jpg","size":"mega"}]},{"id":"8778545","name":"Arena","location":{"geo:point":{"geo:lat":"48.187281","geo:long":"16.412927"},"city":"Wien","country":"Austria","street":"Baumgasse 80","postalcode":"1030"},"url":"http:\/\/www.last.fm\/venue\/8778545+Arena","website":"http:\/\/www.arena.co.at","phonenumber":"+43-(0)1-7988595","image":[{"#text":"http:\/\/userserve-ak.last.fm\/serve\/34\/2149974.jpg","size":"small"},{"#text":"http:\/\/userserve-ak.last.fm\/serve\/64\/2149974.jpg","size":"medium"},{"#text":"http:\/\/userserve-ak.last.fm\/serve\/126\/2149974.jpg","size":"large"},{"#text":"http:\/\/userserve-ak.last.fm\/serve\/252\/2149974.jpg","size":"extralarge"},{"#text":"http:\/\/userserve-ak.last.fm\/serve\/_\/2149974\/Arena.jpg","size":"mega"}]},{"id":"9119745","name":"Atlas Arena","location":{"geo:point":{"geo:lat":"51.756245","geo:long":"19.424911"},"city":"\u0141\u00f3d\u017a","country":"Poland","street":"al. Bandurskiego 7","postalcode":"94-020"},"url":"http:\/\/www.last.fm\/venue\/9119745+Atlas+Arena","website":"http:\/\/www.atlasarena.pl\/","phonenumber":"(42) 272 15 07","image":[{"#text":"http:\/\/userserve-ak.last.fm\/serve\/34\/46102755.jpg","size":"small"},{"#text":"http:\/\/userserve-ak.last.fm\/serve\/64\/46102755.jpg","size":"medium"},{"#text":"http:\/\/userserve-ak.last.fm\/serve\/126\/46102755.jpg","size":"large"},{"#text":"http:\/\/userserve-ak.last.fm\/serve\/252\/46102755.jpg","size":"extralarge"},{"#text":"http:\/\/userserve-ak.last.fm\/serve\/_\/46102755\/Atlas+Arena+Arenadz6666448X.jpg","size":"mega"}]},{"id":"8783707","name":"O2 Arena","location":{"geo:point":{"geo:lat":"51.487582","geo:long":"0.006877"},"city":"London","country":"United Kingdom","street":"Peninsula Square","postalcode":"SE10 0DX"},"url":"http:\/\/www.last.fm\/venue\/8783707+O2+Arena","website":"http:\/\/www.theo2.co.uk","phonenumber":"Tickets: 0161 385 3211, Venue: 020 8463 2000","image":[{"#text":"http:\/\/userserve-ak.last.fm\/serve\/34\/58448.jpg","size":"small"},{"#text":"http:\/\/userserve-ak.last.fm\/serve\/64\/58448.jpg","size":"medium"},{"#text":"http:\/\/userserve-ak.last.fm\/serve\/126\/58448.jpg","size":"large"},{"#text":"http:\/\/userserve-ak.last.fm\/serve\/252\/58448.jpg","size":"extralarge"},{"#text":"http:\/\/userserve-ak.last.fm\/serve\/_\/58448\/O2+Arena.jpg","size":"mega"}]},{"id":"8779474","name":"Arena Skol Anhembi","location":{"geo:point":{"geo:lat":"-23.515061","geo:long":"-46.640958"},"city":"S\u00e3o Paulo","country":"Brazil","street":"Av. Olavo Fontoura, 1.209 - Santana","postalcode":"02012-021"},"url":"http:\/\/www.last.fm\/venue\/8779474+Arena+Skol+Anhembi","website":"http:\/\/www.anhembi.com.br","phonenumber":"(11) 2226-0400","image":[{"#text":"http:\/\/userserve-ak.last.fm\/serve\/34\/552594.jpg","size":"small"},{"#text":"http:\/\/userserve-ak.last.fm\/serve\/64\/552594.jpg","size":"medium"},{"#text":"http:\/\/userserve-ak.last.fm\/serve\/126\/552594.jpg","size":"large"},{"#text":"http:\/\/userserve-ak.last.fm\/serve\/252\/552594.jpg","size":"extralarge"},{"#text":"http:\/\/userserve-ak.last.fm\/serve\/_\/552594\/Arena+Skol+Anhembi.jpg","size":"mega"}]},{"id":"10240169","name":"Manchester Arena","location":{"geo:point":{"geo:lat":"53.487094","geo:long":"-2.243988"},"city":"Manchester","country":"United Kingdom","street":"Victoria Station","postalcode":"M3 1WY"},"url":"http:\/\/www.last.fm\/venue\/10240169+Manchester+Arena","website":"http:\/\/www.mcr-arena.com","phonenumber":"0161 950 5000","image":[{"#text":"http:\/\/userserve-ak.last.fm\/serve\/34\/84898475.jpg","size":"small"},{"#text":"http:\/\/userserve-ak.last.fm\/serve\/64\/84898475.jpg","size":"medium"},{"#text":"http:\/\/userserve-ak.last.fm\/serve\/126\/84898475.jpg","size":"large"},{"#text":"http:\/\/userserve-ak.last.fm\/serve\/252\/84898475.jpg","size":"extralarge"},{"#text":"http:\/\/userserve-ak.last.fm\/serve\/500\/84898475\/Manchester+Arena+Arena+Manchester.jpg","size":"mega"}]},{"id":"10244790","name":"Ergo Arena","location":{"geo:point":{"geo:lat":"54.426508","geo:long":"18.580424"},"city":"Gda\u0144sk","country":"Poland","street":"Plac Dw\u00f3ch Miast 1","postalcode":"81- 735"},"url":"http:\/\/www.last.fm\/venue\/10244790+Ergo+Arena","website":"http:\/\/www.ergoarena.pl\/","phonenumber":"58 767 21 01","image":[{"#text":"http:\/\/userserve-ak.last.fm\/serve\/34\/75096478.jpg","size":"small"},{"#text":"http:\/\/userserve-ak.last.fm\/serve\/64\/75096478.jpg","size":"medium"},{"#text":"http:\/\/userserve-ak.last.fm\/serve\/126\/75096478.jpg","size":"large"},{"#text":"http:\/\/userserve-ak.last.fm\/serve\/252\/75096478.jpg","size":"extralarge"},{"#text":"http:\/\/userserve-ak.last.fm\/serve\/_\/75096478\/Ergo+Arena+ergo1.jpg","size":"mega"}]},{"id":"8952518","name":"Movistar Arena","location":{"geo:point":{"geo:lat":"-33.46252","geo:long":"-70.66223"},"city":"Santiago","country":"Chile","street":"Av. Beaucheff 1204","postalcode":"8370951"},"url":"http:\/\/www.last.fm\/venue\/8952518+Movistar+Arena","website":"http:\/\/www.movistararena.cl","phonenumber":"4787900","image":[{"#text":"http:\/\/userserve-ak.last.fm\/serve\/34\/26094957.jpg","size":"small"},{"#text":"http:\/\/userserve-ak.last.fm\/serve\/64\/26094957.jpg","size":"medium"},{"#text":"http:\/\/userserve-ak.last.fm\/serve\/126\/26094957.jpg","size":"large"},{"#text":"http:\/\/userserve-ak.last.fm\/serve\/252\/26094957.jpg","size":"extralarge"},{"#text":"http:\/\/userserve-ak.last.fm\/serve\/_\/26094957\/Movistar+Arena+227741220412ce6b282cng3.jpg","size":"mega"}]},{"id":"8783637","name":"Hala Arena","location":{"geo:point":{"geo:lat":"52.397797","geo:long":"16.892158"},"city":"Pozna\u0144","country":"Poland","street":"Wyspia\u0144skiego 33","postalcode":"60-751"},"url":"http:\/\/www.last.fm\/venue\/8783637+Hala+Arena","website":"http:\/\/arena.poznan.pl\/","phonenumber":"+48 (61) 866 60 31","image":[{"#text":"http:\/\/userserve-ak.last.fm\/serve\/34\/549988.jpg","size":"small"},{"#text":"http:\/\/userserve-ak.last.fm\/serve\/64\/549988.jpg","size":"medium"},{"#text":"http:\/\/userserve-ak.last.fm\/serve\/126\/549988.jpg","size":"large"},{"#text":"http:\/\/userserve-ak.last.fm\/serve\/252\/549988.jpg","size":"extralarge"},{"#text":"http:\/\/userserve-ak.last.fm\/serve\/500\/549988\/Hala+Arena.jpg","size":"mega"}]},{"id":"8913157","name":"O2 Arena","location":{"geo:point":{"geo:lat":"50.103226","geo:long":"14.493198"},"city":"Praha","country":"Czech Republic","street":"\u010ceskomoravsk\u00e1 2345\/17","postalcode":"190 00"},"url":"http:\/\/www.last.fm\/venue\/8913157+O2+Arena","website":"http:\/\/www.o2arena.cz","phonenumber":"+420 266 121 980","image":[{"#text":"http:\/\/userserve-ak.last.fm\/serve\/34\/29617301.jpg","size":"small"},{"#text":"http:\/\/userserve-ak.last.fm\/serve\/64\/29617301.jpg","size":"medium"},{"#text":"http:\/\/userserve-ak.last.fm\/serve\/126\/29617301.jpg","size":"large"},{"#text":"http:\/\/userserve-ak.last.fm\/serve\/252\/29617301.jpg","size":"extralarge"},{"#text":"http:\/\/userserve-ak.last.fm\/serve\/_\/29617301\/O2+Arena++Prague.jpg","size":"mega"}]},{"id":"8976470","name":"Lanxess Arena","location":{"geo:point":{"geo:lat":"50.938635","geo:long":"6.979938"},"city":"K\u00f6ln","country":"Germany","street":"Willy-Brandt-Platz","postalcode":"50679"},"url":"http:\/\/www.last.fm\/venue\/8976470+Lanxess+Arena","website":"http:\/\/www.lanxess-arena.de\/","phonenumber":"0221 - 8021","image":[{"#text":"http:\/\/userserve-ak.last.fm\/serve\/34\/38065557.png","size":"small"},{"#text":"http:\/\/userserve-ak.last.fm\/serve\/64\/38065557.png","size":"medium"},{"#text":"http:\/\/userserve-ak.last.fm\/serve\/126\/38065557.png","size":"large"},{"#text":"http:\/\/userserve-ak.last.fm\/serve\/252\/38065557.png","size":"extralarge"},{"#text":"http:\/\/userserve-ak.last.fm\/serve\/500\/38065557\/Lanxess+Arena.png","size":"mega"}]},{"id":"8777082","name":"Wembley Arena","location":{"geo:point":{"geo:lat":"51.4974","geo:long":"-0.129817"},"city":"London","country":"United Kingdom","street":"Arena Square, Engineers Way","postalcode":"HA9 0DH"},"url":"http:\/\/www.last.fm\/venue\/8777082+Wembley+Arena","website":"http:\/\/www.wembleyarena.co.uk\/","phonenumber":"020 8782 550","image":[{"#text":"http:\/\/userserve-ak.last.fm\/serve\/34\/350500.jpg","size":"small"},{"#text":"http:\/\/userserve-ak.last.fm\/serve\/64\/350500.jpg","size":"medium"},{"#text":"http:\/\/userserve-ak.last.fm\/serve\/126\/350500.jpg","size":"large"},{"#text":"http:\/\/userserve-ak.last.fm\/serve\/252\/350500.jpg","size":"extralarge"},{"#text":"http:\/\/userserve-ak.last.fm\/serve\/500\/350500\/Wembley+Arena.jpg","size":"mega"}]},{"id":"10244686","name":"Arena Concerti - Fiera Milano Rho","location":{"geo:point":{"geo:lat":"45.535448","geo:long":"9.04924"},"city":"Rho","country":"Italy","street":"Strada Statale del Sempione 28","postalcode":"20017"},"url":"http:\/\/www.last.fm\/venue\/10244686+Arena+Concerti+-+Fiera+Milano+Rho","website":"http:\/\/www.fieramilano.it\/","phonenumber":"","image":[{"#text":"","size":"small"},{"#text":"","size":"medium"},{"#text":"","size":"large"},{"#text":"","size":"extralarge"},{"#text":"","size":"mega"}]},{"id":"8992474","name":"Arena Zagreb","location":{"geo:point":{"geo:lat":"45.8","geo:long":"16"},"city":"Zagreb","country":"Croatia","street":"Lani\u0161te bb","postalcode":"10000"},"url":"http:\/\/www.last.fm\/venue\/8992474+Arena+Zagreb","website":"http:\/\/www.zagrebarena.hr","phonenumber":"+385 1 6420 900","image":[{"#text":"http:\/\/userserve-ak.last.fm\/serve\/34\/58996635.jpg","size":"small"},{"#text":"http:\/\/userserve-ak.last.fm\/serve\/64\/58996635.jpg","size":"medium"},{"#text":"http:\/\/userserve-ak.last.fm\/serve\/126\/58996635.jpg","size":"large"},{"#text":"http:\/\/userserve-ak.last.fm\/serve\/252\/58996635.jpg","size":"extralarge"},{"#text":"http:\/\/userserve-ak.last.fm\/serve\/500\/58996635\/Arena+Zagreb+nebo.jpg","size":"mega"}]},{"id":"8888943","name":"Sala Arena","location":{"geo:point":{"geo:lat":"40.424496","geo:long":"-3.711933"},"city":"Madrid","country":"Spain","street":"Princesa 1","postalcode":"28008"},"url":"http:\/\/www.last.fm\/venue\/8888943+Sala+Arena","website":"http:\/\/www.salarena.es","phonenumber":"+34-915 475 711","image":[{"#text":"http:\/\/userserve-ak.last.fm\/serve\/34\/70943116.jpg","size":"small"},{"#text":"http:\/\/userserve-ak.last.fm\/serve\/64\/70943116.jpg","size":"medium"},{"#text":"http:\/\/userserve-ak.last.fm\/serve\/126\/70943116.jpg","size":"large"},{"#text":"http:\/\/userserve-ak.last.fm\/serve\/252\/70943116.jpg","size":"extralarge"},{"#text":"http:\/\/userserve-ak.last.fm\/serve\/500\/70943116\/Sala+Arena+Arena.jpg","size":"mega"}]},{"id":"8975369","name":"LG Arena","location":{"geo:point":{"geo:lat":"52.4666667","geo:long":"-1.9166667"},"city":"Birmingham","country":"United Kingdom","street":"National Exhibition Centre","postalcode":"B40 1NT"},"url":"http:\/\/www.last.fm\/venue\/8975369+LG+Arena","website":"http:\/\/www.lgarena.co.uk","phonenumber":"01217804141","image":[{"#text":"http:\/\/userserve-ak.last.fm\/serve\/34\/55145823.jpg","size":"small"},{"#text":"http:\/\/userserve-ak.last.fm\/serve\/64\/55145823.jpg","size":"medium"},{"#text":"http:\/\/userserve-ak.last.fm\/serve\/126\/55145823.jpg","size":"large"},{"#text":"http:\/\/userserve-ak.last.fm\/serve\/252\/55145823.jpg","size":"extralarge"},{"#text":"http:\/\/userserve-ak.last.fm\/serve\/500\/55145823\/LG+Arena+Lgarena.jpg","size":"mega"}]},{"id":"8779782","name":"Rod Laver Arena","location":{"geo:point":{"geo:lat":"-37.823328","geo:long":"144.982206"},"city":"Melbourne Park Precinct","country":"Australia","street":"Brunton Avenue","postalcode":"3000"},"url":"http:\/\/www.last.fm\/venue\/8779782+Rod+Laver+Arena","website":"http:\/\/www.mopt.com.au\/desktopdefault.aspx\/tabid-18\/229_read-35","phonenumber":"03 9286 1208","image":[{"#text":"http:\/\/userserve-ak.last.fm\/serve\/34\/62997.jpg","size":"small"},{"#text":"http:\/\/userserve-ak.last.fm\/serve\/64\/62997.jpg","size":"medium"},{"#text":"http:\/\/userserve-ak.last.fm\/serve\/126\/62997.jpg","size":"large"},{"#text":"http:\/\/userserve-ak.last.fm\/serve\/252\/62997.jpg","size":"extralarge"},{"#text":"http:\/\/userserve-ak.last.fm\/serve\/500\/62997\/Rod+Laver+Arena.jpg","size":"mega"}]},{"id":"8961812","name":"HSBC Arena","location":{"geo:point":{"geo:lat":"-22.973175","geo:long":"-43.388632"},"city":"Rio de Janeiro","country":"Brazil","street":"Av. Embaixador Abelardo Bueno, s\/n\u00ba, Barra da Tijuca","postalcode":"22775-040"},"url":"http:\/\/www.last.fm\/venue\/8961812+HSBC+Arena","website":"","phonenumber":"(21) 3326-7243","image":[{"#text":"http:\/\/userserve-ak.last.fm\/serve\/34\/10892269.jpg","size":"small"},{"#text":"http:\/\/userserve-ak.last.fm\/serve\/64\/10892269.jpg","size":"medium"},{"#text":"http:\/\/userserve-ak.last.fm\/serve\/126\/10892269.jpg","size":"large"},{"#text":"http:\/\/userserve-ak.last.fm\/serve\/252\/10892269.jpg","size":"extralarge"},{"#text":"http:\/\/userserve-ak.last.fm\/serve\/_\/10892269\/HSBC+Arena+778490810b214b4bbc839813c88a2d.jpg","size":"mega"}]},{"id":"8887551","name":"Berlin Arena","location":{"geo:point":{"geo:lat":"52.496369","geo:long":"13.454368"},"city":"Berlin","country":"Germany","street":"Eichenstra\u00dfe 4","postalcode":"12435"},"url":"http:\/\/www.last.fm\/venue\/8887551+Berlin+Arena","website":"http:\/\/www.arena-berlin.de","phonenumber":"030\/53015553","image":[{"#text":"http:\/\/userserve-ak.last.fm\/serve\/34\/33250509.jpg","size":"small"},{"#text":"http:\/\/userserve-ak.last.fm\/serve\/64\/33250509.jpg","size":"medium"},{"#text":"http:\/\/userserve-ak.last.fm\/serve\/126\/33250509.jpg","size":"large"},{"#text":"http:\/\/userserve-ak.last.fm\/serve\/252\/33250509.jpg","size":"extralarge"},{"#text":"http:\/\/userserve-ak.last.fm\/serve\/500\/33250509\/Berlin+Arena+ArenaBerlin.jpg","size":"mega"}]},{"id":"8781299","name":"Belgrade Arena","location":{"geo:point":{"geo:lat":"44.814121","geo:long":"20.421401"},"city":"Beograd","country":"Serbia","street":"\u0160panskih boraca 20","postalcode":"11070"},"url":"http:\/\/www.last.fm\/venue\/8781299+Belgrade+Arena","website":"http:\/\/www.arenabeograd.com","phonenumber":"+381 11 311 23 80","image":[{"#text":"http:\/\/userserve-ak.last.fm\/serve\/34\/308519.jpg","size":"small"},{"#text":"http:\/\/userserve-ak.last.fm\/serve\/64\/308519.jpg","size":"medium"},{"#text":"http:\/\/userserve-ak.last.fm\/serve\/126\/308519.jpg","size":"large"},{"#text":"http:\/\/userserve-ak.last.fm\/serve\/252\/308519.jpg","size":"extralarge"},{"#text":"http:\/\/userserve-ak.last.fm\/serve\/_\/308519\/Belgrade+Arena.jpg","size":"mega"}]},{"id":"8781374","name":"Kuru\u00e7e\u015fme Arena","location":{"geo:point":{"geo:lat":"41.056222","geo:long":"29.035388"},"city":"\u0130stanbul","country":"Turkey","street":"Muallim Naci Cad. No:60","postalcode":""},"url":"http:\/\/www.last.fm\/venue\/8781374+Kuru%C3%A7e%C5%9Fme+Arena","website":"http:\/\/www.turkcellkurucesmearena.com","phonenumber":"","image":[{"#text":"http:\/\/userserve-ak.last.fm\/serve\/34\/573501.jpg","size":"small"},{"#text":"http:\/\/userserve-ak.last.fm\/serve\/64\/573501.jpg","size":"medium"},{"#text":"http:\/\/userserve-ak.last.fm\/serve\/126\/573501.jpg","size":"large"},{"#text":"http:\/\/userserve-ak.last.fm\/serve\/252\/573501.jpg","size":"extralarge"},{"#text":"http:\/\/userserve-ak.last.fm\/serve\/500\/573501\/Kurueme+Arena.jpg","size":"mega"}]},{"id":"10252485","name":"Synot Tip Arena","location":{"geo:point":{"geo:lat":"50.068567","geo:long":"14.470063"},"city":"Praha","country":"Czech Republic","street":"U Slavie 1540\/2a","postalcode":""},"url":"http:\/\/www.last.fm\/venue\/10252485+Synot+Tip+Arena","website":"http:\/\/www.eside.cz","phonenumber":"+420 272 118 100","image":[{"#text":"http:\/\/userserve-ak.last.fm\/serve\/34\/76848300.jpg","size":"small"},{"#text":"http:\/\/userserve-ak.last.fm\/serve\/64\/76848300.jpg","size":"medium"},{"#text":"http:\/\/userserve-ak.last.fm\/serve\/126\/76848300.jpg","size":"large"},{"#text":"http:\/\/userserve-ak.last.fm\/serve\/252\/76848300.jpg","size":"extralarge"},{"#text":"http:\/\/userserve-ak.last.fm\/serve\/_\/76848300\/Synot+Tip+Arena+Synot.jpg","size":"mega"}]},{"id":"9220526","name":"Metro Radio Arena Newcastle","location":{"geo:point":{"geo:lat":"54.964053","geo:long":"-1.622136"},"city":"Newcastle Upon Tyne","country":"United Kingdom","street":"Arena Way","postalcode":"NE4 7NA"},"url":"http:\/\/www.last.fm\/venue\/9220526+Metro+Radio+Arena+Newcastle","website":"http:\/\/www.metroradioarena.co.uk\/","phonenumber":"0844 493 6666","image":[{"#text":"http:\/\/userserve-ak.last.fm\/serve\/34\/69582372.jpg","size":"small"},{"#text":"http:\/\/userserve-ak.last.fm\/serve\/64\/69582372.jpg","size":"medium"},{"#text":"http:\/\/userserve-ak.last.fm\/serve\/126\/69582372.jpg","size":"large"},{"#text":"http:\/\/userserve-ak.last.fm\/serve\/252\/69582372.jpg","size":"extralarge"},{"#text":"http:\/\/userserve-ak.last.fm\/serve\/_\/69582372\/Metro+Radio+Arena+Newcastle+Metro2.jpg","size":"mega"}]},{"id":"8800944","name":"Lotto Arena","location":{"geo:point":{"geo:lat":"51.231728","geo:long":"4.440409"},"city":"Antwerpen","country":"Belgium","street":"Schijnpoortweg 119","postalcode":"2170"},"url":"http:\/\/www.last.fm\/venue\/8800944+Lotto+Arena","website":"http:\/\/www.lotto-arena.be","phonenumber":"03 400 60 00","image":[{"#text":"http:\/\/userserve-ak.last.fm\/serve\/34\/3508619.jpg","size":"small"},{"#text":"http:\/\/userserve-ak.last.fm\/serve\/64\/3508619.jpg","size":"medium"},{"#text":"http:\/\/userserve-ak.last.fm\/serve\/126\/3508619.jpg","size":"large"},{"#text":"http:\/\/userserve-ak.last.fm\/serve\/252\/3508619.jpg","size":"extralarge"},{"#text":"http:\/\/userserve-ak.last.fm\/serve\/500\/3508619\/Lotto+Arena+logo20lottoarena.jpg","size":"mega"}]},{"id":"9163107","name":"K\u00f6nig Pilsener Arena","location":{"geo:point":{"geo:lat":"51.490162","geo:long":"6.872538"},"city":"Oberhausen","country":"Germany","street":"Arenastra\u00dfe 1","postalcode":"46047"},"url":"http:\/\/www.last.fm\/venue\/9163107+K%C3%B6nig+Pilsener+Arena","website":"http:\/\/www.koenig-pilsener-arena.de","phonenumber":"0208 - 82 000","image":[{"#text":"http:\/\/userserve-ak.last.fm\/serve\/34\/55676075.jpg","size":"small"},{"#text":"http:\/\/userserve-ak.last.fm\/serve\/64\/55676075.jpg","size":"medium"},{"#text":"http:\/\/userserve-ak.last.fm\/serve\/126\/55676075.jpg","size":"large"},{"#text":"http:\/\/userserve-ak.last.fm\/serve\/252\/55676075.jpg","size":"extralarge"},{"#text":"http:\/\/userserve-ak.last.fm\/serve\/_\/55676075\/Knig+Pilsener+Arena+KnigPilsenerArena1177362102_Ko.jpg","size":"mega"}]},{"id":"9199334","name":"Capital FM Arena Nottingham","location":{"geo:point":{"geo:lat":"52.952711","geo:long":"-1.140421"},"city":"Nottingham","country":"United Kingdom","street":"National Ice Centre, Bolero Square, The Lace Market","postalcode":"NG1 1LA"},"url":"http:\/\/www.last.fm\/venue\/9199334+Capital+FM+Arena+Nottingham","website":"http:\/\/www.capitalfmarena.com\/","phonenumber":"0843 373 3000","image":[{"#text":"http:\/\/userserve-ak.last.fm\/serve\/34\/72475934.jpg","size":"small"},{"#text":"http:\/\/userserve-ak.last.fm\/serve\/64\/72475934.jpg","size":"medium"},{"#text":"http:\/\/userserve-ak.last.fm\/serve\/126\/72475934.jpg","size":"large"},{"#text":"http:\/\/userserve-ak.last.fm\/serve\/252\/72475934.jpg","size":"extralarge"},{"#text":"http:\/\/userserve-ak.last.fm\/serve\/500\/72475934\/Capital+FM+Arena+Nottingham+CapFMarenasideview.jpg","size":"mega"}]},{"id":"8778578","name":"Arena Leipzig","location":{"geo:point":{"geo:lat":"51.342757","geo:long":"12.35301"},"city":"Leipzig","country":"Germany","street":"Am Sportforum 2-3","postalcode":"04105"},"url":"http:\/\/www.last.fm\/venue\/8778578+Arena+Leipzig","website":"http:\/\/arena-leipzig.de","phonenumber":"0341 - 2341 100","image":[{"#text":"http:\/\/userserve-ak.last.fm\/serve\/34\/152279.jpg","size":"small"},{"#text":"http:\/\/userserve-ak.last.fm\/serve\/64\/152279.jpg","size":"medium"},{"#text":"http:\/\/userserve-ak.last.fm\/serve\/126\/152279.jpg","size":"large"},{"#text":"http:\/\/userserve-ak.last.fm\/serve\/252\/152279.jpg","size":"extralarge"},{"#text":"http:\/\/userserve-ak.last.fm\/serve\/_\/152279\/Arena+Leipzig.jpg","size":"mega"}]},{"id":"8790121","name":"Arena Parco Nord","location":{"geo:point":{"geo:lat":"44.525165","geo:long":"11.366955"},"city":"Bologna","country":"Italy","street":"","postalcode":""},"url":"http:\/\/www.last.fm\/venue\/8790121+Arena+Parco+Nord","website":"","phonenumber":"","image":[{"#text":"http:\/\/userserve-ak.last.fm\/serve\/34\/224652.jpg","size":"small"},{"#text":"http:\/\/userserve-ak.last.fm\/serve\/64\/224652.jpg","size":"medium"},{"#text":"http:\/\/userserve-ak.last.fm\/serve\/126\/224652.jpg","size":"large"},{"#text":"http:\/\/userserve-ak.last.fm\/serve\/252\/224652.jpg","size":"extralarge"},{"#text":"http:\/\/userserve-ak.last.fm\/serve\/_\/224652\/Arena+Parco+Nord.jpg","size":"mega"}]},{"id":"8957303","name":"Saitama Super Arena","location":{"geo:point":{"geo:lat":"35.8534396195918","geo:long":"139.652709960938"},"city":"\u3055\u3044\u305f\u307e\u5e02","country":"Japan","street":"\u4e2d\u592e\u533a\u65b0\u90fd\u5fc38\u756a\u5730","postalcode":"\u3012330-0081"},"url":"http:\/\/www.last.fm\/venue\/8957303+Saitama+Super+Arena","website":"http:\/\/www.saitama-arena.co.jp\/","phonenumber":"048-600-3001","image":[{"#text":"http:\/\/userserve-ak.last.fm\/serve\/34\/27443377.jpg","size":"small"},{"#text":"http:\/\/userserve-ak.last.fm\/serve\/64\/27443377.jpg","size":"medium"},{"#text":"http:\/\/userserve-ak.last.fm\/serve\/126\/27443377.jpg","size":"large"},{"#text":"http:\/\/userserve-ak.last.fm\/serve\/252\/27443377.jpg","size":"extralarge"},{"#text":"http:\/\/userserve-ak.last.fm\/serve\/500\/27443377\/Saitama+Super+Arena+Saitama_Super_Arena2005911_1.jpg","size":"mega"}]},{"id":"9193085","name":"Motorpoint Arena","location":{"geo:point":{"geo:lat":"53.402599","geo:long":"-1.418666"},"city":"Sheffield","country":"United Kingdom","street":"Broughton Lane","postalcode":"S9 2DF"},"url":"http:\/\/www.last.fm\/venue\/9193085+Motorpoint+Arena","website":"http:\/\/www.motorpointarenasheffield.co.uk\/","phonenumber":"0114 256 5656","image":[{"#text":"","size":"small"},{"#text":"","size":"medium"},{"#text":"","size":"large"},{"#text":"","size":"extralarge"},{"#text":"","size":"mega"}]},{"id":"10233631","name":"Arena Ciudad de M\u00e9xico","location":{"geo:point":{"geo:lat":"19.498068","geo:long":"-99.174494"},"city":"Mexico City","country":"Mexico","street":"Av Granjas 800","postalcode":"02310"},"url":"http:\/\/www.last.fm\/venue\/10233631+Arena+Ciudad+de+M%C3%A9xico","website":"http:\/\/www.arenaciudaddemexico.com\/","phonenumber":"01 55 2637 0038","image":[{"#text":"http:\/\/userserve-ak.last.fm\/serve\/34\/72039350.jpg","size":"small"},{"#text":"http:\/\/userserve-ak.last.fm\/serve\/64\/72039350.jpg","size":"medium"},{"#text":"http:\/\/userserve-ak.last.fm\/serve\/126\/72039350.jpg","size":"large"},{"#text":"http:\/\/userserve-ak.last.fm\/serve\/252\/72039350.jpg","size":"extralarge"},{"#text":"http:\/\/userserve-ak.last.fm\/serve\/_\/72039350\/Arena+Ciudad+de+Mxico+EzMFPgTgp70BV.jpg","size":"mega"}]},{"id":"8792848","name":"Veltins-Arena","location":{"geo:point":{"geo:lat":"51.55667","geo:long":"7.061722"},"city":"Gelsenkirchen","country":"Germany","street":"Kurt-Schumacher-Stra\u00dfe 284 a","postalcode":"45891"},"url":"http:\/\/www.last.fm\/venue\/8792848+Veltins-Arena","website":"http:\/\/www.veltins-arena.de\/","phonenumber":"01805 \/ 150810","image":[{"#text":"http:\/\/userserve-ak.last.fm\/serve\/34\/37567207.jpg","size":"small"},{"#text":"http:\/\/userserve-ak.last.fm\/serve\/64\/37567207.jpg","size":"medium"},{"#text":"http:\/\/userserve-ak.last.fm\/serve\/126\/37567207.jpg","size":"large"},{"#text":"http:\/\/userserve-ak.last.fm\/serve\/252\/37567207.jpg","size":"extralarge"},{"#text":"http:\/\/userserve-ak.last.fm\/serve\/500\/37567207\/VeltinsArena+veltins+arena.jpg","size":"mega"}]},{"id":"8777921","name":"National Indoor Arena","location":{"geo:point":{"geo:lat":"52.483698","geo:long":"-1.92104"},"city":"Birmingham","country":"United Kingdom","street":"King Edwards Road","postalcode":"B1 2AA"},"url":"http:\/\/www.last.fm\/venue\/8777921+National+Indoor+Arena","website":"http:\/\/www.thenia.co.uk","phonenumber":"01217804141","image":[{"#text":"http:\/\/userserve-ak.last.fm\/serve\/34\/229833.jpg","size":"small"},{"#text":"http:\/\/userserve-ak.last.fm\/serve\/64\/229833.jpg","size":"medium"},{"#text":"http:\/\/userserve-ak.last.fm\/serve\/126\/229833.jpg","size":"large"},{"#text":"http:\/\/userserve-ak.last.fm\/serve\/252\/229833.jpg","size":"extralarge"},{"#text":"http:\/\/userserve-ak.last.fm\/serve\/500\/229833\/National+Indoor+Arena.jpg","size":"mega"}]},{"id":"8796861","name":"Vector Arena","location":{"geo:point":{"geo:lat":"-36.846985","geo:long":"174.773941"},"city":"Auckland","country":"New Zealand","street":"42-80 Mahuhu Crescent, Parnell","postalcode":"1010"},"url":"http:\/\/www.last.fm\/venue\/8796861+Vector+Arena","website":"http:\/\/vectorarena.co.nz","phonenumber":"09 358 1250","image":[{"#text":"http:\/\/userserve-ak.last.fm\/serve\/34\/92595.jpg","size":"small"},{"#text":"http:\/\/userserve-ak.last.fm\/serve\/64\/92595.jpg","size":"medium"},{"#text":"http:\/\/userserve-ak.last.fm\/serve\/126\/92595.jpg","size":"large"},{"#text":"http:\/\/userserve-ak.last.fm\/serve\/252\/92595.jpg","size":"extralarge"},{"#text":"http:\/\/userserve-ak.last.fm\/serve\/_\/92595\/Vector+Arena.jpg","size":"mega"}]},{"id":"9193086","name":"Motorpoint Arena","location":{"geo:point":{"geo:lat":"51.478766","geo:long":"-3.172741"},"city":"Cardiff","country":"United Kingdom","street":"Mary Ann Street","postalcode":"CF10 2EQ"},"url":"http:\/\/www.last.fm\/venue\/9193086+Motorpoint+Arena","website":"http:\/\/www.livenation.co.uk\/cardiff","phonenumber":"029 2023 4500","image":[{"#text":"http:\/\/userserve-ak.last.fm\/serve\/34\/64720769.jpg","size":"small"},{"#text":"http:\/\/userserve-ak.last.fm\/serve\/64\/64720769.jpg","size":"medium"},{"#text":"http:\/\/userserve-ak.last.fm\/serve\/126\/64720769.jpg","size":"large"},{"#text":"http:\/\/userserve-ak.last.fm\/serve\/252\/64720769.jpg","size":"extralarge"},{"#text":"http:\/\/userserve-ak.last.fm\/serve\/_\/64720769\/Motorpoint+Arena+motorpoint.jpg","size":"mega"}]},{"id":"10237927","name":"\"\u017dalgirio\" arena","location":{"geo:point":{"geo:lat":"54.895705","geo:long":"23.91337"},"city":"Kaunas","country":"Lithuania","street":"Karaliaus Mindaugo prospektas 50","postalcode":"44333"},"url":"http:\/\/www.last.fm\/venue\/10237927+%22%C5%BDalgirio%22+arena","website":"http:\/\/zalgirioarena.lt\/","phonenumber":"","image":[{"#text":"http:\/\/userserve-ak.last.fm\/serve\/34\/73279978.jpg","size":"small"},{"#text":"http:\/\/userserve-ak.last.fm\/serve\/64\/73279978.jpg","size":"medium"},{"#text":"http:\/\/userserve-ak.last.fm\/serve\/126\/73279978.jpg","size":"large"},{"#text":"http:\/\/userserve-ak.last.fm\/serve\/252\/73279978.jpg","size":"extralarge"},{"#text":"http:\/\/userserve-ak.last.fm\/serve\/_\/73279978\/algirio+arena+zalgirio1.jpg","size":"mega"}]},{"id":"8791838","name":"Oracle Arena","location":{"geo:point":{"geo:lat":"37.75035","geo:long":"-122.202945"},"city":"Oakland","country":"United States","street":"7000 Coliseum Way","postalcode":"94621"},"url":"http:\/\/www.last.fm\/venue\/8791838+Oracle+Arena","website":"http:\/\/www.coliseum.com","phonenumber":"510.569.2121","image":[{"#text":"http:\/\/userserve-ak.last.fm\/serve\/34\/7534395.jpg","size":"small"},{"#text":"http:\/\/userserve-ak.last.fm\/serve\/64\/7534395.jpg","size":"medium"},{"#text":"http:\/\/userserve-ak.last.fm\/serve\/126\/7534395.jpg","size":"large"},{"#text":"http:\/\/userserve-ak.last.fm\/serve\/252\/7534395.jpg","size":"extralarge"},{"#text":"http:\/\/userserve-ak.last.fm\/serve\/_\/7534395\/Oracle+Arena+goldenstatearena31.jpg","size":"mega"}]},{"id":"9222554","name":"Allphones Arena","location":{"geo:point":{"geo:lat":"-33.847907","geo:long":"151.066716"},"city":"Sydney Olympic Park","country":"Australia","street":"Olympic Blvd","postalcode":"2127"},"url":"http:\/\/www.last.fm\/venue\/9222554+Allphones+Arena","website":"http:\/\/allphonesarena.com.au\/","phonenumber":"(02) 8765 4321","image":[{"#text":"","size":"small"},{"#text":"","size":"medium"},{"#text":"","size":"large"},{"#text":"","size":"extralarge"},{"#text":"","size":"mega"}]},{"id":"10225796","name":"Rogers Arena","location":{"geo:point":{"geo:lat":"49.277661","geo:long":"-123.108107"},"city":"Vancouver","country":"Canada","street":"800 Griffiths Way","postalcode":"V6B 6G1"},"url":"http:\/\/www.last.fm\/venue\/10225796+Rogers+Arena","website":"http:\/\/www.rogersarena.ca\/","phonenumber":"604.899.7400","image":[{"#text":"","size":"small"},{"#text":"","size":"medium"},{"#text":"","size":"large"},{"#text":"","size":"extralarge"},{"#text":"","size":"mega"}]},{"id":"10268044","name":"PGE Arena","location":{"geo:point":{"geo:lat":"54.390104","geo:long":"18.640215"},"city":"Gda\u0144sk","country":"Poland","street":"ul. Uczniowska 28","postalcode":"80-530"},"url":"http:\/\/www.last.fm\/venue\/10268044+PGE+Arena","website":"http:\/\/www.pgearena.gdansk.pl\/","phonenumber":"","image":[{"#text":"http:\/\/userserve-ak.last.fm\/serve\/34\/80560853.jpg","size":"small"},{"#text":"http:\/\/userserve-ak.last.fm\/serve\/64\/80560853.jpg","size":"medium"},{"#text":"http:\/\/userserve-ak.last.fm\/serve\/126\/80560853.jpg","size":"large"},{"#text":"http:\/\/userserve-ak.last.fm\/serve\/252\/80560853.jpg","size":"extralarge"},{"#text":"http:\/\/userserve-ak.last.fm\/serve\/500\/80560853\/PGE+Arena.jpg","size":"mega"}]},{"id":"8873332","name":"Echo Arena","location":{"geo:point":{"geo:lat":"53.4152617149922","geo:long":"-2.97866821289062"},"city":"Liverpool Waterfront","country":"United Kingdom","street":"Kings Dock","postalcode":"L3 4FP"},"url":"http:\/\/www.last.fm\/venue\/8873332+Echo+Arena","website":"http:\/\/www.echoarena.com\/","phonenumber":"0151 475 8888","image":[{"#text":"http:\/\/userserve-ak.last.fm\/serve\/34\/13620727.jpg","size":"small"},{"#text":"http:\/\/userserve-ak.last.fm\/serve\/64\/13620727.jpg","size":"medium"},{"#text":"http:\/\/userserve-ak.last.fm\/serve\/126\/13620727.jpg","size":"large"},{"#text":"http:\/\/userserve-ak.last.fm\/serve\/252\/13620727.jpg","size":"extralarge"},{"#text":"http:\/\/userserve-ak.last.fm\/serve\/_\/13620727\/Echo+Arena++City+Side.jpg","size":"mega"}]},{"id":"8876907","name":"Arena DreiRaum","location":{"geo:point":{"geo:lat":"48.187523","geo:long":"16.413379"},"city":"Wien","country":"Austria","street":"Baumgasse 80","postalcode":"1030"},"url":"http:\/\/www.last.fm\/venue\/8876907+Arena+DreiRaum","website":"http:\/\/www.arena.co.at","phonenumber":"","image":[{"#text":"http:\/\/userserve-ak.last.fm\/serve\/34\/24774563.jpg","size":"small"},{"#text":"http:\/\/userserve-ak.last.fm\/serve\/64\/24774563.jpg","size":"medium"},{"#text":"http:\/\/userserve-ak.last.fm\/serve\/126\/24774563.jpg","size":"large"},{"#text":"http:\/\/userserve-ak.last.fm\/serve\/252\/24774563.jpg","size":"extralarge"},{"#text":"http:\/\/userserve-ak.last.fm\/serve\/_\/24774563\/Arena+DreiRaum+dreiraumlogo.jpg","size":"mega"}]},{"id":"8778827","name":"Key Arena","location":{"geo:point":{"geo:lat":"47.621178","geo:long":"-122.352215"},"city":"Seattle","country":"United States","street":"305 Harrison Street","postalcode":"98109"},"url":"http:\/\/www.last.fm\/venue\/8778827+Key+Arena","website":"http:\/\/www.seattlecenter.com\/events\/concerts\/","phonenumber":"(206) 684-7200","image":[{"#text":"http:\/\/userserve-ak.last.fm\/serve\/34\/578303.jpg","size":"small"},{"#text":"http:\/\/userserve-ak.last.fm\/serve\/64\/578303.jpg","size":"medium"},{"#text":"http:\/\/userserve-ak.last.fm\/serve\/126\/578303.jpg","size":"large"},{"#text":"http:\/\/userserve-ak.last.fm\/serve\/252\/578303.jpg","size":"extralarge"},{"#text":"http:\/\/userserve-ak.last.fm\/serve\/_\/578303\/Key+Arena.jpg","size":"mega"}]},{"id":"8973374","name":"Telenor Arena","location":{"geo:point":{"geo:lat":"59.9037","geo:long":"10.623"},"city":"B\u00e6rum","country":"Norway","street":"Gamle Snar\u00f8yvei 21","postalcode":"1367"},"url":"http:\/\/www.last.fm\/venue\/8973374+Telenor+Arena","website":"http:\/\/www.telenorarena.no\/","phonenumber":"94 800 400","image":[{"#text":"http:\/\/userserve-ak.last.fm\/serve\/34\/39121097.jpg","size":"small"},{"#text":"http:\/\/userserve-ak.last.fm\/serve\/64\/39121097.jpg","size":"medium"},{"#text":"http:\/\/userserve-ak.last.fm\/serve\/126\/39121097.jpg","size":"large"},{"#text":"http:\/\/userserve-ak.last.fm\/serve\/252\/39121097.jpg","size":"extralarge"},{"#text":"http:\/\/userserve-ak.last.fm\/serve\/500\/39121097\/Telenor+Arena+telenor.jpg","size":"mega"}]},{"id":"8792637","name":"Odyssey Arena","location":{"geo:point":{"geo:lat":"54.603925","geo:long":"-5.91539"},"city":"Belfast","country":"United Kingdom","street":"2 Queen's Quay","postalcode":"BT3 9QQ"},"url":"http:\/\/www.last.fm\/venue\/8792637+Odyssey+Arena","website":"http:\/\/www.odysseyarena.com\/","phonenumber":"028 9073 9074","image":[{"#text":"http:\/\/userserve-ak.last.fm\/serve\/34\/545141.jpg","size":"small"},{"#text":"http:\/\/userserve-ak.last.fm\/serve\/64\/545141.jpg","size":"medium"},{"#text":"http:\/\/userserve-ak.last.fm\/serve\/126\/545141.jpg","size":"large"},{"#text":"http:\/\/userserve-ak.last.fm\/serve\/252\/545141.jpg","size":"extralarge"},{"#text":"http:\/\/userserve-ak.last.fm\/serve\/_\/545141\/Odyssey+Arena.jpg","size":"mega"}]},{"id":"10279459","name":"ESPRIT arena","location":{"geo:point":{"geo:lat":"51.261168","geo:long":"6.733708"},"city":"D\u00fcsseldorf","country":"Germany","street":"LTU-Arena-Stra\u00dfe 1","postalcode":"40474"},"url":"http:\/\/www.last.fm\/venue\/10279459+ESPRIT+arena","website":"http:\/\/www.espritarena.de\/","phonenumber":"0211 15981200","image":[{"#text":"http:\/\/userserve-ak.last.fm\/serve\/34\/83153819.jpg","size":"small"},{"#text":"http:\/\/userserve-ak.last.fm\/serve\/64\/83153819.jpg","size":"medium"},{"#text":"http:\/\/userserve-ak.last.fm\/serve\/126\/83153819.jpg","size":"large"},{"#text":"http:\/\/userserve-ak.last.fm\/serve\/252\/83153819.jpg","size":"extralarge"},{"#text":"http:\/\/userserve-ak.last.fm\/serve\/_\/83153819\/ESPRIT+arena+esprit.jpg","size":"mega"}]},{"id":"8940655","name":"Incheba Arena","location":{"geo:point":{"geo:lat":"50.106931","geo:long":"14.434128"},"city":"Praha","country":"Czech Republic","street":"Za elektr\u00e1rnou 419\/1","postalcode":"170 00"},"url":"http:\/\/www.last.fm\/venue\/8940655+Incheba+Arena","website":"http:\/\/www.incheba.cz","phonenumber":"","image":[{"#text":"http:\/\/userserve-ak.last.fm\/serve\/34\/22754879.jpg","size":"small"},{"#text":"http:\/\/userserve-ak.last.fm\/serve\/64\/22754879.jpg","size":"medium"},{"#text":"http:\/\/userserve-ak.last.fm\/serve\/126\/22754879.jpg","size":"large"},{"#text":"http:\/\/userserve-ak.last.fm\/serve\/252\/22754879.jpg","size":"extralarge"},{"#text":"http:\/\/userserve-ak.last.fm\/serve\/_\/22754879\/Incheba+Arena+incheba.jpg","size":"mega"}]},{"id":"8780705","name":"Arena Monterrey","location":{"geo:point":{"geo:lat":"25.681466","geo:long":"-100.290048"},"city":"Monterrey","country":"Mexico","street":"Av. Madero #2500 Col. Obrera","postalcode":"64800"},"url":"http:\/\/www.last.fm\/venue\/8780705+Arena+Monterrey","website":"http:\/\/www.arenamonterrey.com","phonenumber":"(81) 8126-2100","image":[{"#text":"http:\/\/userserve-ak.last.fm\/serve\/34\/2835249.jpg","size":"small"},{"#text":"http:\/\/userserve-ak.last.fm\/serve\/64\/2835249.jpg","size":"medium"},{"#text":"http:\/\/userserve-ak.last.fm\/serve\/126\/2835249.jpg","size":"large"},{"#text":"http:\/\/userserve-ak.last.fm\/serve\/252\/2835249.jpg","size":"extralarge"},{"#text":"http:\/\/userserve-ak.last.fm\/serve\/_\/2835249\/Arena+Monterrey+amInterior.jpg","size":"mega"}]},{"id":"8779676","name":"ArenA","location":{"geo:point":{"geo:lat":"52.312798","geo:long":"4.940639"},"city":"Amsterdam","country":"Netherlands","street":"ArenA Boulevard 1","postalcode":"1101 AX"},"url":"http:\/\/www.last.fm\/venue\/8779676+ArenA","website":"http:\/\/www.amsterdamarena.nl","phonenumber":"020 - 311.1333","image":[{"#text":"http:\/\/userserve-ak.last.fm\/serve\/34\/575949.jpg","size":"small"},{"#text":"http:\/\/userserve-ak.last.fm\/serve\/64\/575949.jpg","size":"medium"},{"#text":"http:\/\/userserve-ak.last.fm\/serve\/126\/575949.jpg","size":"large"},{"#text":"http:\/\/userserve-ak.last.fm\/serve\/252\/575949.jpg","size":"extralarge"},{"#text":"http:\/\/userserve-ak.last.fm\/serve\/500\/575949\/ArenA.jpg","size":"mega"}]},{"id":"8965420","name":"Tesla Arena","location":{"geo:point":{"geo:lat":"50.10705","geo:long":"14.433653"},"city":"Praha","country":"Czech Republic","street":"Za elektr\u00e1rnou 1082\/1","postalcode":"170 00"},"url":"http:\/\/www.last.fm\/venue\/8965420+Tesla+Arena","website":"http:\/\/www.tesla-arena.cz","phonenumber":"+420 266 727 443\u200e","image":[{"#text":"http:\/\/userserve-ak.last.fm\/serve\/34\/13433581.jpg","size":"small"},{"#text":"http:\/\/userserve-ak.last.fm\/serve\/64\/13433581.jpg","size":"medium"},{"#text":"http:\/\/userserve-ak.last.fm\/serve\/126\/13433581.jpg","size":"large"},{"#text":"http:\/\/userserve-ak.last.fm\/serve\/252\/13433581.jpg","size":"extralarge"},{"#text":"http:\/\/userserve-ak.last.fm\/serve\/_\/13433581\/Tesla+Arena+divadlo_5.jpg","size":"mega"}]}]},"@attr":{"for":"arena"}}}
